[
  {
    "FarmNm_CH": "頭城休閒農場",
    "TEL": "+886-3-9772222",
    "FAX": "+886-3-9778688",
    "PCode": "261",
    "County": "宜蘭縣",
    "Township": "頭城鎮",
    "Address_CH": "宜蘭縣頭城鎮更新路125號",
    "Address_EN": "No.125 Gensin Rd., Touchen Township, Yilan County",
    "WebURL": "www.tcfarm.com.tw",
    "Longitude": "121.849468",
    "Latitude": "24.907147",
    "AccessibleItem": "無障礙廁所、無障礙坡道"
  },
  {
    "FarmNm_CH": "南投縣大雁休閒農業區",
    "TEL": "+886-4-92895938、+886-9-11866667",
    "FAX": "+886-4-92895228",
    "PCode": "555",
    "County": "南投縣",
    "Township": "魚池鄉",
    "Address_CH": "南投縣魚池鄉大雁村大雁巷36-1號",
    "Address_EN": "No.36-1, Dayan Ln., Yuchi Township, Nantou County 555",
    "WebURL": "http://www.gont.com.tw/da-yan-xiu-xian-nong-ye-qu",
    "Longitude": "120.92087",
    "Latitude": "23.923606",
    "AccessibleItem": "無障礙坡道"
  },
  {
    "FarmNm_CH": "南投縣桃米休閒農業區",
    "TEL": "+886-4-92911591、+886-9-33157216",
    "FAX": "+886-4-92911591",
    "PCode": "545",
    "County": "南投縣",
    "Township": "埔里鎮",
    "Address_CH": "南投縣埔里鎮桃米里桃米巷5-6號",
    "Address_EN": "No.5-6, Taomi Ln., Puli Township, Nantou County 545",
    "WebURL": "http://www.gont.com.tw/tao-mi-xiu-xian-nong-ye-qu",
    "Longitude": "120.941944",
    "Latitude": "23.939693",
    "AccessibleItem": "無障礙坡道"
  },
  {
    "FarmNm_CH": "高雄市民生休閒農業區",
    "TEL": "+886-7-670-1001",
    "FAX": "+886-7-6701171",
    "PCode": "849",
    "County": "高雄市",
    "Township": "那瑪夏區",
    "Address_CH": "高雄市那瑪夏區達卡奴瓦里大光巷230號",
    "Address_EN": "No.230, Daguang Ln., Namaxia Dist., Kaohsiung City 849",
    "WebURL": "http://namasia.kcg.gov.tw/index.php?zone=page1_01_detail.php&no=146&class=2",
    "Longitude": "120.695607",
    "Latitude": "23.195993",
    "AccessibleItem": "無障礙坡道、無障礙廁所"
  },
  {
    "FarmNm_CH": "宜蘭縣橫山頭休閒農業區",
    "TEL": "+886-3-5950627、+886-9-28407554",
    "FAX": "+886-3-9225665",
    "PCode": "264",
    "County": "宜蘭縣",
    "Township": "員山鄉",
    "Address_CH": "宜蘭縣員山向尚德村八甲路15之1號",
    "Address_EN": "No.15-1, Bajia Rd., Yuanshan Township, Yilan County 264",
    "WebURL": "http://yuanshan.17high.com.tw/Hala/",
    "Longitude": "121.716266",
    "Latitude": "24.7303975",
    "AccessibleItem": "無障礙坡道、無障礙電梯"
  },
  {
    "FarmNm_CH": "宜蘭縣天送埤休閒農業區",
    "TEL": "+886-3-9891698",
    "FAX": "+886-3-9894089",
    "PCode": "266",
    "County": "宜蘭縣",
    "Township": "三星鄉",
    "Address_CH": "宜蘭縣三星鄉天山村下湖路1號",
    "Address_EN": "No.1, Xiahu Rd., Sanxing Township, Yilan County 266",
    "WebURL": "http://song.sunshin.org.tw/",
    "Longitude": "121.628332",
    "Latitude": "24.656365",
    "AccessibleItem": "無障礙坡道、無障礙廁所"
  },
  {
    "FarmNm_CH": "苗栗縣福興南和休閒農業區",
    "TEL": "+886-9-53170045",
    "FAX": "+886-3-7783902",
    "PCode": "357",
    "County": "苗栗縣",
    "Township": "通霄鎮",
    "Address_CH": "苗栗縣通霄鎮南和里166號",
    "Address_EN": "No.166, Nanhe, Tongxiao Township, Miaoli County 357",
    "WebURL": "http://www.lohas-tongxiao.com.tw/",
    "Longitude": "120.740487",
    "Latitude": "24.443004",
    "AccessibleItem": "無障礙坡道、無障礙停車位"
  },
  {
    "FarmNm_CH": "苗栗南江休閒農業區",
    "TEL": "+886-3-7821736、+886-9-28331930",
    "FAX": "",
    "PCode": "353",
    "County": "苗栗縣",
    "Township": "南庄鄉",
    "Address_CH": "苗栗縣南庄鄉南江村小東河14鄰8號-3",
    "Address_EN": "No.8-3, Xiaodonghe, Nanzhuang Township, Miaoli County 353",
    "WebURL": "https://www.facebook.com/pages/%E8%8B%97%E6%A0%97%E7%B8%A3%E5%8D%97%E5%BA%84%E9%84%89%E5%8D%97%E6%B1",
    "Longitude": "120.996814",
    "Latitude": "24.587553",
    "AccessibleItem": "無障礙坡道、無障礙停車位"
  },
  {
    "FarmNm_CH": "臺中市食水嵙休閒農業區",
    "TEL": "+886-4-25722511",
    "FAX": "+886-4-25722874",
    "PCode": "422",
    "County": "台中市",
    "Township": "石岡區",
    "Address_CH": "台中市石岡區豐勢路881號",
    "Address_EN": "No.881, Fengshi Rd., Shigang Dist., Taichung City 422",
    "WebURL": "http://ezgo.coa.gov.tw/Attraction.aspx?134d9fc7-446b-4d25-b85d-6913f46dfca1",
    "Longitude": "120.7890292",
    "Latitude": "24.2738298",
    "AccessibleItem": "無障礙坡道"
  },
  {
    "FarmNm_CH": "南投縣糯米橋休閒農業區",
    "TEL": "+886-4-92461777",
    "FAX": "+886-4-92462345",
    "PCode": "544",
    "County": "南投縣",
    "Township": "國姓鄉",
    "Address_CH": "南投縣國姓鄉國姓路62號-1",
    "Address_EN": "No.62-1, Guoxing Rd., Guoxing Township, Nantou County 544,",
    "WebURL": "https://www.facebook.com/NuomiBridge",
    "Longitude": "120.9116462",
    "Latitude": "24.0572269",
    "AccessibleItem": "無障礙廁所"
  },
  {
    "FarmNm_CH": "雲林縣金湖休閒農業區",
    "TEL": "+886-5-7895475",
    "FAX": "+886-5-7893953",
    "PCode": "652",
    "County": "雲林縣",
    "Township": "口湖鄉",
    "Address_CH": "雲林縣口湖鄉崇文路2段402巷50號",
    "Address_EN": "No.50, Ln. 402, Sec. 2, Chongwen Rd., Kouhu Township, Yunlin County 653",
    "WebURL": "http://www.yoyo164.com.tw/",
    "Longitude": "120.1769741",
    "Latitude": "23.581647",
    "AccessibleItem": "無障礙坡道"
  },
  {
    "FarmNm_CH": "勝洋休閒農場",
    "TEL": "+886-3-9222487",
    "FAX": "+886-3-9231814",
    "PCode": "264",
    "County": "宜蘭縣",
    "Township": "員山鄉",
    "Address_CH": "宜蘭縣員山鄉尚德村八甲路15-6號",
    "Address_EN": "No.15-6, Bajia Rd., Yuanshan Township, Yilan County",
    "WebURL": "www.sy-water.com.tw",
    "Longitude": "121.705748",
    "Latitude": "24.727973",
    "AccessibleItem": "無障礙坡道"
  },
  {
    "FarmNm_CH": "宜蘭縣枕頭山休閒農業區",
    "TEL": "+886-3-9230785",
    "FAX": "+886-3-9224101",
    "PCode": "264",
    "County": "宜蘭縣",
    "Township": "員山鄉",
    "Address_CH": "宜蘭縣員山鄉枕山村波城路69號",
    "Address_EN": "No.69, Pocheng Rd., Yuanshan Township, Yilan County 264",
    "WebURL": "http://www.ete.com.tw/play/",
    "Longitude": "121.713646",
    "Latitude": "24.766651",
    "AccessibleItem": "無障礙廁所、無障礙坡道"
  },
  {
    "FarmNm_CH": "臺東金針山休閒農業區",
    "TEL": "+886-8-9781006、+886-9-35551497",
    "FAX": "+886-8-9782482",
    "PCode": "963",
    "County": "台東縣",
    "Township": "太麻里",
    "Address_CH": "台東縣太麻里鄉大王村佳崙202號",
    "Address_EN": "No.202, Jialun, Taimali Township, Taitung County 963",
    "WebURL": "http://tour.taitung.gov.tw/zh-tw/Travel/ScenicSpot/345/%E9%87%91%E9%87%9D%E5%B1%B1%E4%BC%91%E9%96%92",
    "Longitude": "120.9532123",
    "Latitude": "22.5540555",
    "AccessibleItem": "無障礙廁所"
  },
  {
    "FarmNm_CH": "雪霸休閒農場",
    "TEL": "+886-3-5856193",
    "FAX": "+886-3-5857182",
    "PCode": "311",
    "County": "新竹縣",
    "Township": "五峰鄉",
    "Address_CH": "新竹縣五峰鄉桃山村民石380號",
    "Address_EN": "No.380 Cunminshi, Taoshan Vil., Wufeng Township, Hsinchu County",
    "WebURL": "www.sheipa.com.tw",
    "Longitude": "121.117167",
    "Latitude": "24.527875",
    "AccessibleItem": "無障礙坡道"
  },
  {
    "FarmNm_CH": "魔菇部落休閒農場",
    "TEL": "+886-4-8521898",
    "FAX": "+886-4-8525288",
    "PCode": "513",
    "County": "彰化縣",
    "Township": "埔心鄉",
    "Address_CH": "彰化縣埔心鄉埤腳村柳橋東路829號",
    "Address_EN": "No.829 Liuqiao E. Rd., Puxin Township, Changhua County",
    "WebURL": "www.mushrooms.com.tw",
    "Longitude": "120.520925",
    "Latitude": "23.974009",
    "AccessibleItem": "無障礙廁所"
  },
  {
    "FarmNm_CH": "走馬瀨休閒農場",
    "TEL": "+886-6-5760121",
    "FAX": "+886-6-5760282",
    "PCode": "742",
    "County": "台南市",
    "Township": "大內區",
    "Address_CH": "台南市大內區二溪里其子瓦60號",
    "Address_EN": "No.60, Qiziwa, Danei Dist., Tainan City 742, Taiwan (R.O.C.)",
    "WebURL": "www.farm.com.tw",
    "Longitude": "120.429941",
    "Latitude": "23.136504",
    "AccessibleItem": "無障礙廁所"
  },
  {
    "FarmNm_CH": "彰化休閒農場",
    "TEL": "+886-4-8899812、+886-4-7222151#1661",
    "FAX": "+886-4-8789202",
    "PCode": "524",
    "County": "彰化縣",
    "Township": "溪州鄉",
    "Address_CH": "彰化縣溪州鄉中央路三段138號",
    "Address_EN": "No.138, Sec. 3, Zhongyang Rd., Xizhou Township, Changhua County 524",
    "WebURL": "http://www.chcg.gov.tw/agriculture/07other/other01_con.asp?topsn=17&data_id=10238",
    "Longitude": "120.4963479",
    "Latitude": "23.842461",
    "AccessibleItem": "無障礙坡道"
  },
  {
    "FarmNm_CH": "新竹照門休閒農業區",
    "TEL": "+886-3-5890035",
    "FAX": "+886-3-5899901",
    "PCode": "305",
    "County": "新竹縣",
    "Township": "新埔鎮",
    "Address_CH": "新竹縣新埔鎮中正路776號",
    "Address_EN": "No.776, Zhongzheng Rd., Xinpu Township, Hsinchu County",
    "WebURL": "http://ezgo.coa.gov.tw/Attraction.aspx?27de3bc4-4189-4a3b-bf18-11556e971afd",
    "Longitude": "121.105941",
    "Latitude": "24.850753",
    "AccessibleItem": "無障礙坡道、無障礙廁所"
  },
  {
    "FarmNm_CH": "苗栗縣舊山線休閒農業區",
    "TEL": "+886-3-7881700",
    "FAX": "",
    "PCode": "367",
    "County": "苗栗縣",
    "Township": "三義鄉",
    "Address_CH": "苗栗縣三義鄉龍騰村外庄10號",
    "Address_EN": "No.10, Waizhuang, Sanyi Township, Miaoli County 367",
    "WebURL": "https://www.facebook.com/881oml",
    "Longitude": "120.778048",
    "Latitude": "24.361093",
    "AccessibleItem": "無障礙坡道"
  },
  {
    "FarmNm_CH": "臺中市馬力埔休閒農業區",
    "TEL": "+886-4-25811511、+886-9-22612417",
    "FAX": "+886-4-25817196",
    "PCode": "426",
    "County": "台中市",
    "Township": "新社區",
    "Address_CH": "台中市新社區新社里中和街四段226號",
    "Address_EN": "No.226, Sec. 4, Zhonghe St., Xinshe Dist., Taichung City 426",
    "WebURL": "http://www.mlp-farm.com/",
    "Longitude": "120.808245",
    "Latitude": "24.24367",
    "AccessibleItem": "無障礙坡道"
  }
]